{
"type": "FeatureCollection",
"crs": { "type": "name", "properties": { "name": "urn:ogc:def:crs:OGC:1.3:CRS84" } },
"features": [
{ "type": "Feature", "properties": { "codpresa": 2340004, "Nombre": "AGUILAR DE CAMPOO", "Nombre SEP": "AGUILAR DE CAMPOO", "Otro nombr": "---", "Fecha": "02\/09\/1964", "Anyo": 1964, "Rio": "PISUERGA", "Municipio": "AGUILAR DE CAMPOO", "Cuenca": "DUERO", "Provincia": "PALENCIA", "x": 394705, "y": 4739000, "Tipos": "Hidroel?ctrico, Riego, Abastecimiento", "time": 1964 }, "geometry": { "type": "Point", "coordinates": [ -4.287577335380306, 42.796313181874652 ] } },
{ "type": "Feature", "properties": { "codpresa": 8160006, "Nombre": "ALARCON", "Nombre SEP": "ALARCON", "Otro nombr": "---", "Fecha": "30\/09\/1955", "Anyo": 1955, "Rio": "JUCAR", "Municipio": "ALARCON", "Cuenca": "JUCAR", "Provincia": "CUENCA", "x": 576346, "y": 4379982, "Tipos": "Regulaci?n, Riego, Abastecimiento", "time": 1955 }, "geometry": { "type": "Point", "coordinates": [ -2.111202949771708, 39.566139909051188 ] } },
{ "type": "Feature", "properties": { "codpresa": 8120006, "Nombre": "ALCORA", "Nombre SEP": "ALCORA", "Otro nombr": "---", "Fecha": "29\/09\/1958", "Anyo": 1958, "Rio": "LUCENA", "Municipio": "ALCORA", "Cuenca": "JUCAR", "Provincia": "CASTELLON", "x": 737177, "y": 4442329, "Tipos": "Riego, Regulaci?n, ---", "time": 1958 }, "geometry": { "type": "Point", "coordinates": [ -0.217764880706736, 40.097808748237014 ] } },
{ "type": "Feature", "properties": { "codpresa": 5110041, "Nombre": "ALMODOVAR (DIQUE DEL COLLADO) (RECRECIDA)", "Nombre SEP": "ALMODOVAR", "Otro nombr": "---", "Fecha": "01\/01\/1972", "Anyo": 1972, "Rio": "ALMODOVAR", "Municipio": "TARIFA", "Cuenca": "GUADALETE Y BARBATE", "Provincia": "CADIZ", "x": 261945, "y": 4004510, "Tipos": "Abastecimiento, Riego, ---", "time": 1972 }, "geometry": { "type": "Point", "coordinates": [ -5.6496094694724, 36.154023079668001 ] } },
{ "type": "Feature", "properties": { "codpresa": 3190001, "Nombre": "ALMOGUERA", "Nombre SEP": "ALMOGUERA", "Otro nombr": "---", "Fecha": "01\/01\/1947", "Anyo": 1947, "Rio": "TAJO", "Municipio": "ALMOGUERA", "Cuenca": "TAJO", "Provincia": "GUADALAJARA", "x": 503585, "y": 4460330, "Tipos": "Hidroel?ctrico, Regulaci?n, Riego", "time": 1947 }, "geometry": { "type": "Point", "coordinates": [ -2.958060149695001, 40.274267020018591 ] } },
{ "type": "Feature", "properties": { "codpresa": 8030027, "Nombre": "AMADORIO", "Nombre SEP": "AMADORIO", "Otro nombr": "---", "Fecha": "24\/02\/1960", "Anyo": 1960, "Rio": "AMADORIO", "Municipio": "VILLAJOYOSA", "Cuenca": "JUCAR", "Provincia": "ALICANTE", "x": 738600, "y": 4268800, "Tipos": "Abastecimiento, Riego, ---", "time": 1960 }, "geometry": { "type": "Point", "coordinates": [ -0.264494947243017, 38.534433418899191 ] } },
{ "type": "Feature", "properties": { "codpresa": 3100070, "Nombre": "ARAYA DE ARRIBA (DIQUE DEL COLLADO)", "Nombre SEP": "ARAYA DE ARRIBA", "Otro nombr": "---", "Fecha": "01\/01\/1958", "Anyo": 1958, "Rio": "ANCIANES", "Municipio": "BROZAS", "Cuenca": "TAJO", "Provincia": "CACERES", "x": 184298, "y": 4380608, "Tipos": "Riego, ---, ---", "time": 1958 }, "geometry": { "type": "Point", "coordinates": [ -6.669083094471207, 39.514151344135968 ] } },
{ "type": "Feature", "properties": { "codpresa": 5110031, "Nombre": "ARCOS", "Nombre SEP": "ARCOS", "Otro nombr": "---", "Fecha": "01\/01\/1965", "Anyo": 1965, "Rio": "GUADALETE", "Municipio": "ARCOS DE LA FRONTERA", "Cuenca": "GUADALETE Y BARBATE", "Provincia": "CADIZ", "x": 250520, "y": 4071143, "Tipos": "Hidroel?ctrico, Riego, ---", "time": 1965 }, "geometry": { "type": "Point", "coordinates": [ -5.792731267777851, 36.752161775175644 ] } },
{ "type": "Feature", "properties": { "codpresa": 7300010, "Nombre": "ARGOS", "Nombre SEP": "ARGOS", "Otro nombr": "---", "Fecha": "01\/12\/1972", "Anyo": 1972, "Rio": "ARGOS", "Municipio": "CEHEGIN", "Cuenca": "SEGURA", "Provincia": "MURCIA", "x": 611000, "y": 4225906, "Tipos": "Defensa frente a avenidas, Riego, ---", "time": 1972 }, "geometry": { "type": "Point", "coordinates": [ -1.734646466736164, 38.172270828043082 ] } },
{ "type": "Feature", "properties": { "codpresa": 8440007, "Nombre": "ARQUILLO DE SAN BLAS", "Nombre SEP": "ARQUILLO DE SAN BLAS", "Otro nombr": "---", "Fecha": "31\/12\/1962", "Anyo": 1962, "Rio": "GUADALAVIAR", "Municipio": "TERUEL", "Cuenca": "JUCAR", "Provincia": "TERUEL", "x": 653793, "y": 4469304, "Tipos": "Abastecimiento, Defensa frente a avenidas, Riego", "time": 1962 }, "geometry": { "type": "Point", "coordinates": [ -1.205312792986797, 40.363554533489371 ] } },
{ "type": "Feature", "properties": { "codpresa": 3280039, "Nombre": "ARROYOS, LOS (DIQUE DE COLA)", "Nombre SEP": "ARROYOS, LOS", "Otro nombr": "---", "Fecha": "31\/12\/1967", "Anyo": 1967, "Rio": "LADRON", "Municipio": "ESCORIAL, EL", "Cuenca": "TAJO", "Provincia": "MADRID", "x": 411261, "y": 4493850, "Tipos": "Riego, ---, ---", "time": 1967 }, "geometry": { "type": "Point", "coordinates": [ -4.049558271959623, 40.589882366078719 ] } },
{ "type": "Feature", "properties": { "codpresa": 3280048, "Nombre": "ATAZAR, EL", "Nombre SEP": "ATAZAR, EL", "Otro nombr": "---", "Fecha": "31\/12\/1972", "Anyo": 1972, "Rio": "LOZOYA", "Municipio": "PATONES Y ATAZAR", "Cuenca": "TAJO", "Provincia": "MADRID", "x": 460256, "y": 4529303, "Tipos": "Abastecimiento, Hidroel?ctrico, Riego", "time": 1972 }, "geometry": { "type": "Point", "coordinates": [ -3.471957042410473, 40.913869171260394 ] } },
{ "type": "Feature", "properties": { "codpresa": 3450030, "Nombre": "AZUTAN", "Nombre SEP": "AZUTAN", "Otro nombr": "---", "Fecha": "31\/12\/1969", "Anyo": 1969, "Rio": "TAJO", "Municipio": "AZUTAN Y ALCOLEA DE TAJO", "Cuenca": "TAJO", "Provincia": "TOLEDO", "x": 321222, "y": 4405375, "Tipos": "Hidroel?ctrico, Riego, ---", "time": 1969 }, "geometry": { "type": "Point", "coordinates": [ -5.089354567303456, 39.776875577030268 ] } },
{ "type": "Feature", "properties": { "codpresa": 9250051, "Nombre": "BALAGUER PARTIDOR (CONTRAEMBALSE)", "Nombre SEP": "BALAGUER", "Otro nombr": "---", "Fecha": "31\/12\/1958", "Anyo": 1958, "Rio": "SEGRE", "Municipio": "OS DE BALAGUER", "Cuenca": "EBRO", "Provincia": "LLEIDA", "x": 818394, "y": 4638887, "Tipos": "Hidroel?ctrico, Riego, ---", "time": 1958 }, "geometry": { "type": "Point", "coordinates": [ 0.837007905576761, 41.853447400439265 ] } },
{ "type": "Feature", "properties": { "codpresa": 8440011, "Nombre": "BALAGUERAS", "Nombre SEP": "BALAGUERAS", "Otro nombr": "---", "Fecha": "31\/12\/1957", "Anyo": 1957, "Rio": "PALOMERAS", "Municipio": "RUBIELOS DE MORA", "Cuenca": "JUCAR", "Provincia": "TERUEL", "x": 697715, "y": 4454450, "Tipos": "Riego, Regulaci?n, ---", "time": 1957 }, "geometry": { "type": "Point", "coordinates": [ -0.678273734487578, 40.211736676229641 ] } },
{ "type": "Feature", "properties": { "codpresa": 1240011, "Nombre": "BARCENA", "Nombre SEP": "BARCENA", "Otro nombr": "---", "Fecha": "31\/12\/1960", "Anyo": 1960, "Rio": "SIL", "Municipio": "PONFERRADA", "Cuenca": "MI?O-SIL", "Provincia": "LEON", "x": 207593, "y": 4720277, "Tipos": "Hidroel?ctrico, Riego, Abastecimiento", "time": 1960 }, "geometry": { "type": "Point", "coordinates": [ -6.559701893595043, 42.577867471746558 ] } },
{ "type": "Feature", "properties": { "codpresa": 2240029, "Nombre": "BARRIOS DE LUNA", "Nombre SEP": "BARRIOS DE LUNA", "Otro nombr": "---", "Fecha": "31\/12\/1956", "Anyo": 1956, "Rio": "ORBIGO - LUNA (LUNA)", "Municipio": "BARRIOS DE LUNA, LOS", "Cuenca": "DUERO", "Provincia": "LEON", "x": 266290, "y": 4748255, "Tipos": "Abastecimiento, Hidroel?ctrico, Riego", "time": 1956 }, "geometry": { "type": "Point", "coordinates": [ -5.861292889220889, 42.84959328640403 ] } },
{ "type": "Feature", "properties": { "codpresa": 5140040, "Nombre": "BEMBEZAR", "Nombre SEP": "BEMBEZAR", "Otro nombr": "---", "Fecha": "01\/01\/1963", "Anyo": 1963, "Rio": "BEMBEZAR", "Municipio": "HORNACHUELOS", "Cuenca": "GUADALQUIVIR", "Provincia": "CORDOBA", "x": 305740, "y": 4197410, "Tipos": "Abastecimiento, Hidroel?ctrico, Riego", "time": 1963 }, "geometry": { "type": "Point", "coordinates": [ -5.209567749366365, 37.903499876965576 ] } },
{ "type": "Feature", "properties": { "codpresa": 8460027, "Nombre": "BENAGEBER", "Nombre SEP": "BENAGEBER", "Otro nombr": "---", "Fecha": "31\/12\/1954", "Anyo": 1954, "Rio": "TURIA", "Municipio": "BENAGEBER", "Cuenca": "JUCAR", "Provincia": "VALENCIA", "x": 663079, "y": 4399195, "Tipos": "Abastecimiento, Hidroel?ctrico, Riego", "time": 1954 }, "geometry": { "type": "Point", "coordinates": [ -1.098399884711653, 39.726752710347917 ] } },
{ "type": "Feature", "properties": { "codpresa": 2240030, "Nombre": "BENAMARIAS", "Nombre SEP": "BENAMARIAS", "Otro nombr": "---", "Fecha": "31\/12\/1972", "Anyo": 1972, "Rio": "SALGUIRAL", "Municipio": "MAGAZ DE CEPEDA", "Cuenca": "DUERO", "Provincia": "LEON", "x": 244026, "y": 4716999, "Tipos": "Riego, ---, ---", "time": 1972 }, "geometry": { "type": "Point", "coordinates": [ -6.115658159293967, 42.564269934337403 ] } },
{ "type": "Feature", "properties": { "codpresa": 8030035, "Nombre": "BENIARRES", "Nombre SEP": "BENIARRES", "Otro nombr": "---", "Fecha": "01\/04\/1958", "Anyo": 1958, "Rio": "SERPIS", "Municipio": "BENIARRES", "Cuenca": "JUCAR", "Provincia": "ALICANTE", "x": 729605, "y": 4299796, "Tipos": "Riego, ---, ---", "time": 1958 }, "geometry": { "type": "Point", "coordinates": [ -0.357219079341582, 38.814565965248882 ] } },
{ "type": "Feature", "properties": { "codpresa": 5180023, "Nombre": "BERMEJALES, LOS", "Nombre SEP": "BERMEJALES, LOS", "Otro nombr": "---", "Fecha": "01\/01\/1958", "Anyo": 1958, "Rio": "CACIN", "Municipio": "ARENAS DEL REY", "Cuenca": "GUADALQUIVIR", "Provincia": "GRANADA", "x": 420700, "y": 4095050, "Tipos": "Abastecimiento, Hidroel?ctrico, Riego", "time": 1958 }, "geometry": { "type": "Point", "coordinates": [ -3.891365885911003, 36.996088335445911 ] } },
{ "type": "Feature", "properties": { "codpresa": 10170002, "Nombre": "BOADELLA", "Nombre SEP": "BOADELLA (ELS FANGOTS)", "Otro nombr": "---", "Fecha": "16\/12\/1969", "Anyo": 1969, "Rio": "MUGA", "Municipio": "DARNIUS", "Cuenca": "CUENCAS INTERNAS DE CATALU?A", "Provincia": "GERONA", "x": 981015, "y": 4704322, "Tipos": "Abastecimiento, Hidroel?ctrico, Riego", "time": 1969 }, "geometry": { "type": "Point", "coordinates": [ 2.832860734003766, 42.341133834254407 ] } },
{ "type": "Feature", "properties": { "codpresa": 5230002, "Nombre": "BOLERA, LA", "Nombre SEP": "BOLERA, LA", "Otro nombr": "---", "Fecha": "31\/12\/1967", "Anyo": 1967, "Rio": "GUADALETIN", "Municipio": "POZO ALCON", "Cuenca": "GUADALQUIVIR", "Provincia": "JAEN", "x": 508658, "y": 4179650, "Tipos": "Abastecimiento, Riego, ---", "time": 1967 }, "geometry": { "type": "Point", "coordinates": [ -2.901700539471795, 37.764131555574146 ] } },
{ "type": "Feature", "properties": { "codpresa": 3100091, "Nombre": "BORBOLLON", "Nombre SEP": "BORBOLLON", "Otro nombr": "---", "Fecha": "10\/05\/1954", "Anyo": 1954, "Rio": "ARRAGO", "Municipio": "SANTIBA?EZ EL ALTO", "Cuenca": "TAJO", "Provincia": "CACERES", "x": 194910, "y": 4447965, "Tipos": "Hidroel?ctrico, Riego, Adecuaci?n ambiental", "time": 1954 }, "geometry": { "type": "Point", "coordinates": [ -6.577038323907449, 40.125518313736613 ] } },
{ "type": "Feature", "properties": { "codpresa": 3100088, "Nombre": "BORBOLLON (DERIVACION) - ARRAGO (CONTRAEMBALSE)", "Nombre SEP": "BORBOLLON (DERIVACION) - ARRAGO", "Otro nombr": "---", "Fecha": "01\/01\/1954", "Anyo": 1954, "Rio": "ARRAGO", "Municipio": "SANTIBA?EZ EL ALTO", "Cuenca": "TAJO", "Provincia": "CACERES", "x": 193368, "y": 4446703, "Tipos": "Riego, ---, ---", "time": 1954 }, "geometry": { "type": "Point", "coordinates": [ -6.594684213333943, 40.113266515278852 ] } },
{ "type": "Feature", "properties": { "codpresa": 5110061, "Nombre": "BORNOS", "Nombre SEP": "BORNOS", "Otro nombr": "---", "Fecha": "01\/01\/1961", "Anyo": 1961, "Rio": "GUADALETE", "Municipio": "BORNOS", "Cuenca": "GUADALETE Y BARBATE", "Provincia": "CADIZ", "x": 253744, "y": 4075482, "Tipos": "Hidroel?ctrico, Riego, ---", "time": 1961 }, "geometry": { "type": "Point", "coordinates": [ -5.759436093508874, 36.791415000613384 ] } },
{ "type": "Feature", "properties": { "codpresa": 3100094, "Nombre": "BOYERIL 2, EL", "Nombre SEP": "BOYERIL 2, EL", "Otro nombr": "---", "Fecha": "01\/01\/1965", "Anyo": 1965, "Rio": "ARROYO MANCO", "Municipio": "CASATEJADA", "Cuenca": "TAJO", "Provincia": "CACERES", "x": 274235, "y": 4419290, "Tipos": "Riego, ---, ---", "time": 1965 }, "geometry": { "type": "Point", "coordinates": [ -5.640605966572634, 39.893636688349581 ] } },
{ "type": "Feature", "properties": { "codpresa": 4060047, "Nombre": "BROVALES", "Nombre SEP": "BROVALES", "Otro nombr": "---", "Fecha": "01\/01\/1960", "Anyo": 1960, "Rio": "BROVALES", "Municipio": "JEREZ DE LOS CABALLEROS", "Cuenca": "GUADIANA", "Provincia": "BADAJOZ", "x": 176798, "y": 4251307, "Tipos": "Riego, ---, ---", "time": 1960 }, "geometry": { "type": "Point", "coordinates": [ -6.695873868786813, 38.346529377568544 ] } },
{ "type": "Feature", "properties": { "codpresa": 9220016, "Nombre": "BUBAL", "Nombre SEP": "BUBAL", "Otro nombr": "---", "Fecha": "31\/12\/1971", "Anyo": 1971, "Rio": "GALLEGO", "Municipio": "HOZ DE JACA, BIESCAS", "Cuenca": "EBRO", "Provincia": "HUESCA", "x": 720079, "y": 4729203, "Tipos": "Abastecimiento, Hidroel?ctrico, Riego", "time": 1971 }, "geometry": { "type": "Point", "coordinates": [ -0.313735159766937, 42.683815589392154 ] } },
{ "type": "Feature", "properties": { "codpresa": 3190007, "Nombre": "BUENDIA", "Nombre SEP": "BUENDIA", "Otro nombr": "---", "Fecha": "31\/12\/1958", "Anyo": 1958, "Rio": "GUADIELA", "Municipio": "BUENDIA", "Cuenca": "TAJO", "Provincia": "CUENCA", "x": 518481, "y": 4472261, "Tipos": "Hidroel?ctrico, Abastecimiento, Riego", "time": 1958 }, "geometry": { "type": "Point", "coordinates": [ -2.783032268938273, 40.398970644389919 ] } },
{ "type": "Feature", "properties": { "codpresa": 2420008, "Nombre": "CAMPILLO DE BUITRAGO", "Nombre SEP": "CAMPILLO DE BUITRAGO", "Otro nombr": "---", "Fecha": "30\/09\/1969", "Anyo": 1969, "Rio": "DUERO", "Municipio": "SORIA Y GARRAY", "Cuenca": "DUERO", "Provincia": "SORIA", "x": 539483, "y": 4631600, "Tipos": "Abastecimiento, Riego, ---", "time": 1969 }, "geometry": { "type": "Point", "coordinates": [ -2.526177065477742, 41.83344717314035 ] } },
{ "type": "Feature", "properties": { "codpresa": 5410016, "Nombre": "CANTILLANA", "Nombre SEP": "CANTILLANA", "Otro nombr": "---", "Fecha": "31\/12\/1956", "Anyo": 1956, "Rio": "GUADALQUIVIR", "Municipio": "CANTILLANA", "Cuenca": "GUADALQUIVIR", "Provincia": "SEVILLA", "x": 252655, "y": 4164393, "Tipos": "Hidroel?ctrico, Riego, ---", "time": 1956 }, "geometry": { "type": "Point", "coordinates": [ -5.811358500175449, 37.592567862550794 ] } },
{ "type": "Feature", "properties": { "codpresa": 3450033, "Nombre": "CASTREJON", "Nombre SEP": "CASTREJON", "Otro nombr": "---", "Fecha": "31\/12\/1967", "Anyo": 1967, "Rio": "TAJO", "Municipio": "PUEBLA DE MONTALBAN, LA Y POL?N", "Cuenca": "TAJO", "Provincia": "TOLEDO", "x": 389280, "y": 4410440, "Tipos": "Hidroel?ctrico, Riego, ---", "time": 1967 }, "geometry": { "type": "Point", "coordinates": [ -4.294003079508768, 39.83675602603963 ] } },
{ "type": "Feature", "properties": { "codpresa": 3450014, "Nombre": "CASTREJON \/ CA?ARES", "Nombre SEP": "CASTREJON \/ CAARES", "Otro nombr": "---", "Fecha": "31\/12\/1967", "Anyo": 1967, "Rio": "ARROYO CA?ARES", "Municipio": "PUEBLA DE MONTALBAN, LA", "Cuenca": "TAJO", "Provincia": "TOLEDO", "x": 382105, "y": 4411925, "Tipos": "Hidroel?ctrico, Riego, ---", "time": 1967 }, "geometry": { "type": "Point", "coordinates": [ -4.378053490887235, 39.847817081530053 ] } },
{ "type": "Feature", "properties": { "codpresa": 3450043, "Nombre": "CASTREJON \/ CARPIO, EL", "Nombre SEP": "CASTREJON \/ CARPIO, EL", "Otro nombr": "---", "Fecha": "31\/12\/1967", "Anyo": 1967, "Rio": "ARROYO EL CARPIO", "Municipio": "CARPIO DE TAJO", "Cuenca": "TAJO", "Provincia": "TOLEDO", "x": 376065, "y": 4413100, "Tipos": "Hidroel?ctrico, Riego, ---", "time": 1967 }, "geometry": { "type": "Point", "coordinates": [ -4.450620085863259, 39.856892397103778 ] } },
{ "type": "Feature", "properties": { "codpresa": 3450047, "Nombre": "CAZALEGAS", "Nombre SEP": "CAZALEGAS", "Otro nombr": "---", "Fecha": "31\/12\/1949", "Anyo": 1949, "Rio": "ALBERCHE", "Municipio": "CAZALEGAS", "Cuenca": "TAJO", "Provincia": "TOLEDO", "x": 354505, "y": 4430825, "Tipos": "Abastecimiento, Riego, ---", "time": 1949 }, "geometry": { "type": "Point", "coordinates": [ -4.704824316924543, 40.015098156015803 ] } },
{ "type": "Feature", "properties": { "codpresa": 5110019, "Nombre": "CELEMIN (ALIVIADERO) (DIQUE DEL COLLADO)", "Nombre SEP": "CELEMIN", "Otro nombr": "---", "Fecha": "01\/01\/1974", "Anyo": 1974, "Rio": "CELEMIN", "Municipio": "MEDINA-SIDONIA", "Cuenca": "GUADALETE Y BARBATE", "Provincia": "CADIZ", "x": 251076, "y": 4021595, "Tipos": "Riego, ---, ---", "time": 1974 }, "geometry": { "type": "Point", "coordinates": [ -5.774493725002328, 36.300170104635853 ] } },
{ "type": "Feature", "properties": { "codpresa": 7020010, "Nombre": "CENAJO, EL", "Nombre SEP": "CENAJO, EL", "Otro nombr": "---", "Fecha": "31\/12\/1960", "Anyo": 1960, "Rio": "SEGURA", "Municipio": "MORATALLA Y HELLIN", "Cuenca": "SEGURA", "Provincia": "MURCIA", "x": 607142, "y": 4247250, "Tipos": "Defensa frente a avenidas, Riego, ---", "time": 1960 }, "geometry": { "type": "Point", "coordinates": [ -1.776945694611156, 38.365061328691581 ] } },
{ "type": "Feature", "properties": { "codpresa": 2490003, "Nombre": "CERNADILLA", "Nombre SEP": "CERNADILLA", "Otro nombr": "---", "Fecha": "31\/12\/1969", "Anyo": 1969, "Rio": "TERA", "Municipio": "CERNADILLA- MANZANAL DE ARRIBA", "Cuenca": "DUERO", "Provincia": "ZAMORA", "x": 213312, "y": 4657994, "Tipos": "Hidroel?ctrico, Riego, ---", "time": 1969 }, "geometry": { "type": "Point", "coordinates": [ -6.459559330758671, 42.019596079797424 ] } },
{ "type": "Feature", "properties": { "codpresa": 3450040, "Nombre": "CERQUILLA, LA", "Nombre SEP": "CERQUILLA, LA", "Otro nombr": "---", "Fecha": "31\/12\/1962", "Anyo": 1962, "Rio": "JULIAN (ARROYO DE SAN JULIAN)", "Municipio": "CALZADA DE OROPESA, LA", "Cuenca": "TAJO", "Provincia": "TOLEDO", "x": 307907, "y": 4429641, "Tipos": "Riego, ---, ---", "time": 1962 }, "geometry": { "type": "Point", "coordinates": [ -5.250132699482004, 39.995123674015133 ] } },
{ "type": "Feature", "properties": { "codpresa": 4100015, "Nombre": "CIJARA", "Nombre SEP": "CIJARA", "Otro nombr": "---", "Fecha": "01\/01\/1956", "Anyo": 1956, "Rio": "GUADIANA", "Municipio": "ALIA Y HERRERA DEL DUQUE", "Cuenca": "GUADIANA", "Provincia": "CACERES", "x": 326475, "y": 4360367, "Tipos": "Abastecimiento, Hidroel?ctrico, Riego", "time": 1956 }, "geometry": { "type": "Point", "coordinates": [ -5.014549450756571, 39.375353008490492 ] } },
{ "type": "Feature", "properties": { "codpresa": 9430006, "Nombre": "CIURANA", "Nombre SEP": "CIURANA", "Otro nombr": "---", "Fecha": "31\/12\/1972", "Anyo": 1972, "Rio": "CIURANA", "Municipio": "CORNUDELLA DE MONTSANT", "Cuenca": "EBRO", "Provincia": "TARRAGONA", "x": 828373, "y": 4574080, "Tipos": "Abastecimiento, Riego, ---", "time": 1972 }, "geometry": { "type": "Point", "coordinates": [ 0.919011710611436, 41.251431350136897 ] } },
{ "type": "Feature", "properties": { "codpresa": 10170006, "Nombre": "COLOMERS (AZUD)", "Nombre SEP": "COLOMERS", "Otro nombr": "---", "Fecha": "01\/12\/1967", "Anyo": 1967, "Rio": "TER", "Municipio": "COLOMERS", "Cuenca": "CUENCAS INTERNAS DE CATALU?A", "Provincia": "GERONA", "x": 996004, "y": 4675791, "Tipos": "Riego, ---, ---", "time": 1967 }, "geometry": { "type": "Point", "coordinates": [ 2.995261836482376, 42.077376031664308 ] } },
{ "type": "Feature", "properties": { "codpresa": 5140036, "Nombre": "CORDOBILLA", "Nombre SEP": "CORDOBILLA", "Otro nombr": "---", "Fecha": "01\/01\/1953", "Anyo": 1953, "Rio": "GENIL", "Municipio": "PUENTE GENIL", "Cuenca": "GUADALQUIVIR", "Provincia": "CORDOBA", "x": 347701, "y": 4135123, "Tipos": "Hidroel?ctrico, Riego, ---", "time": 1953 }, "geometry": { "type": "Point", "coordinates": [ -4.719537557385121, 37.350325426145467 ] } },
{ "type": "Feature", "properties": { "codpresa": 3100064, "Nombre": "CORONO, EL", "Nombre SEP": "CORONO, EL", "Otro nombr": "---", "Fecha": "01\/01\/1971", "Anyo": 1971, "Rio": "ARROYO GODINO", "Municipio": "PASARON DE LA VERA", "Cuenca": "TAJO", "Provincia": "CACERES", "x": 260734, "y": 4435578, "Tipos": "Riego, ---, ---", "time": 1971 }, "geometry": { "type": "Point", "coordinates": [ -5.805425022606157, 40.036107404774889 ] } },
{ "type": "Feature", "properties": { "codpresa": 5180012, "Nombre": "CUBILLAS", "Nombre SEP": "CUBILLAS", "Otro nombr": "---", "Fecha": "01\/01\/1956", "Anyo": 1956, "Rio": "CUBILLAS", "Municipio": "ALBOLOTE, CHAPARRAL", "Cuenca": "GUADALQUIVIR", "Provincia": "GRANADA", "x": 439470, "y": 4126405, "Tipos": "Riego, ---, ---", "time": 1956 }, "geometry": { "type": "Point", "coordinates": [ -3.682131873611126, 37.275113549931035 ] } },
{ "type": "Feature", "properties": { "codpresa": 2420001, "Nombre": "CUERDA DEL POZO", "Nombre SEP": "CUERDA DEL POZO", "Otro nombr": "---", "Fecha": "31\/12\/1941", "Anyo": 1941, "Rio": "DUERO", "Municipio": "VINUESA", "Cuenca": "DUERO", "Provincia": "SORIA", "x": 524663, "y": 4636207, "Tipos": "Abastecimiento, Hidroel?ctrico, Riego", "time": 1941 }, "geometry": { "type": "Point", "coordinates": [ -2.704110633917093, 41.87560601488341 ] } },
{ "type": "Feature", "properties": { "codpresa": 9390001, "Nombre": "EBRO", "Nombre SEP": "EBRO", "Otro nombr": "---", "Fecha": "31\/12\/1945", "Anyo": 1945, "Rio": "EBRO", "Municipio": "ROZAS DE VALDEARROLLO, LAS", "Cuenca": "EBRO", "Provincia": "CANTABRIA", "x": 414326, "y": 4758227, "Tipos": "Abastecimiento, Hidroel?ctrico, Riego", "time": 1945 }, "geometry": { "type": "Point", "coordinates": [ -4.05062366921491, 42.971874766016001 ] } },
{ "type": "Feature", "properties": { "codpresa": 3280052, "Nombre": "ENCINILLA, LA", "Nombre SEP": "ENCINILLA, LA", "Otro nombr": "---", "Fecha": "31\/12\/1964", "Anyo": 1964, "Rio": "ENCINILLA (ARROYO ENCINILLA)", "Municipio": "GUADARRAMA", "Cuenca": "TAJO", "Provincia": "MADRID", "x": 406098, "y": 4503397, "Tipos": "Riego, ---, ---", "time": 1964 }, "geometry": { "type": "Point", "coordinates": [ -4.111099536295225, 40.676112759435348 ] } },
{ "type": "Feature", "properties": { "codpresa": 3190016, "Nombre": "ENTREPE?AS", "Nombre SEP": "ENTREPEAS", "Otro nombr": "---", "Fecha": "01\/01\/1956", "Anyo": 1956, "Rio": "TAJO", "Municipio": "SACEDON, AU?ON", "Cuenca": "TAJO", "Provincia": "GUADALAJARA", "x": 521162, "y": 4482457, "Tipos": "Hidroel?ctrico, Riego, Abastecimiento", "time": 1956 }, "geometry": { "type": "Point", "coordinates": [ -2.749959594219085, 40.492634593906466 ] } },
{ "type": "Feature", "properties": { "codpresa": 5410014, "Nombre": "ESPARRAGAL, EL", "Nombre SEP": "ESPARRAGAL, EL", "Otro nombr": "---", "Fecha": "31\/12\/1970", "Anyo": 1970, "Rio": "ENCARNACION", "Municipio": "GERENA", "Cuenca": "GUADALQUIVIR", "Provincia": "SEVILLA", "x": 224955, "y": 4160665, "Tipos": "Riego, ---, ---", "time": 1970 }, "geometry": { "type": "Point", "coordinates": [ -6.113480344235373, 37.551976464269863 ] } },
{ "type": "Feature", "properties": { "codpresa": 3190026, "Nombre": "ESTREMERA", "Nombre SEP": "ESTREMERA", "Otro nombr": "---", "Fecha": "01\/01\/1950", "Anyo": 1950, "Rio": "TAJO", "Municipio": "DRIEBES, LEGANIEL", "Cuenca": "TAJO", "Provincia": "GUADALAJARA", "x": 499510, "y": 4450630, "Tipos": "Riego, ---, ---", "time": 1950 }, "geometry": { "type": "Point", "coordinates": [ -3.005757759587735, 40.206075433303262 ] } },
{ "type": "Feature", "properties": { "codpresa": 9430007, "Nombre": "FLIX", "Nombre SEP": "FLIX", "Otro nombr": "---", "Fecha": "31\/12\/1948", "Anyo": 1948, "Rio": "EBRO", "Municipio": "FLIX", "Cuenca": "EBRO", "Provincia": "TARRAGONA", "x": 797742, "y": 4570937, "Tipos": "Hidroel?ctrico, Regulaci?n, Riego", "time": 1948 }, "geometry": { "type": "Point", "coordinates": [ 0.546685765282842, 41.232229806653066 ] } },
{ "type": "Feature", "properties": { "codpresa": 8460004, "Nombre": "FORATA", "Nombre SEP": "FORATA", "Otro nombr": "---", "Fecha": "01\/01\/1969", "Anyo": 1969, "Rio": "MAGRO", "Municipio": "YATOVA", "Cuenca": "JUCAR", "Provincia": "VALENCIA", "x": 684213, "y": 4356914, "Tipos": "Riego, ---, ---", "time": 1969 }, "geometry": { "type": "Point", "coordinates": [ -0.866259988066856, 39.340061288602712 ] } },
{ "type": "Feature", "properties": { "codpresa": 1240021, "Nombre": "FUENTE DEL AZUFRE (CONTRAEMBALSE)", "Nombre SEP": "FUENTE DEL AZUFRE", "Otro nombr": "---", "Fecha": "31\/12\/1949", "Anyo": 1949, "Rio": "SIL", "Municipio": "PONFERRADA", "Cuenca": "MI?O-SIL", "Provincia": "LEON", "x": 205737, "y": 4718533, "Tipos": "Hidroel?ctrico, Riego, Riego", "time": 1949 }, "geometry": { "type": "Point", "coordinates": [ -6.582196131732726, 42.563225416467269 ] } },
{ "type": "Feature", "properties": { "codpresa": 3100073, "Nombre": "GABRIEL Y GALAN", "Nombre SEP": "GABRIEL Y GALAN", "Otro nombr": "---", "Fecha": "01\/01\/1961", "Anyo": 1961, "Rio": "ALAGON", "Municipio": "GUIJO DE GRANADILLA", "Cuenca": "TAJO", "Provincia": "CACERES", "x": 233284, "y": 4457169, "Tipos": "Hidroel?ctrico, Riego, ---", "time": 1961 }, "geometry": { "type": "Point", "coordinates": [ -6.134549362427333, 40.222519021053614 ] } },
{ "type": "Feature", "properties": { "codpresa": 4060063, "Nombre": "GARCIA DE SOLA", "Nombre SEP": "GARCIA DE SOLA", "Otro nombr": "PUERTO PE?A", "Fecha": "01\/01\/1965", "Anyo": 1965, "Rio": "GUADIANA", "Municipio": "TALARRUBIAS", "Cuenca": "GUADIANA", "Provincia": "BADAJOZ", "x": 311314, "y": 4335259, "Tipos": "Abastecimiento, Hidroel?ctrico, Riego", "time": 1965 }, "geometry": { "type": "Point", "coordinates": [ -5.183418568541133, 39.146091661909495 ] } },
{ "type": "Feature", "properties": { "codpresa": 9260028, "Nombre": "GONZALEZ LACASA", "Nombre SEP": "GONZALEZ LACASA", "Otro nombr": "---", "Fecha": "31\/12\/1962", "Anyo": 1962, "Rio": "ALBERCOS", "Municipio": "ORTIGOSA DE CAMEROS", "Cuenca": "EBRO", "Provincia": "LOGRO?O", "x": 527302, "y": 4669311, "Tipos": "Abastecimiento, Hidroel?ctrico, Riego", "time": 1962 }, "geometry": { "type": "Point", "coordinates": [ -2.672761375493678, 42.174095692630871 ] } },
{ "type": "Feature", "properties": { "codpresa": 9220078, "Nombre": "GRADO I, EL", "Nombre SEP": "GRADO I, EL", "Otro nombr": "---", "Fecha": "31\/12\/1969", "Anyo": 1969, "Rio": "CINCA", "Municipio": "GRADO, EL", "Cuenca": "EBRO", "Provincia": "HUESCA", "x": 767725, "y": 4671815, "Tipos": "Hidroel?ctrico, Riego, Abastecimiento", "time": 1969 }, "geometry": { "type": "Point", "coordinates": [ 0.23741948399448, 42.151433358758538 ] } },
{ "type": "Feature", "properties": { "codpresa": 5230049, "Nombre": "GUADALEN", "Nombre SEP": "GUADALEN", "Otro nombr": "---", "Fecha": "31\/12\/1954", "Anyo": 1954, "Rio": "GUADALEN", "Municipio": "ARQUILLOS, VILCHES", "Cuenca": "GUADALQUIVIR", "Provincia": "JAEN", "x": 458265, "y": 4224145, "Tipos": "Abastecimiento, Hidroel?ctrico, Riego", "time": 1954 }, "geometry": { "type": "Point", "coordinates": [ -3.477940002262961, 38.161962665683475 ] } },
{ "type": "Feature", "properties": { "codpresa": 8030092, "Nombre": "GUADALEST", "Nombre SEP": "GUADALEST", "Otro nombr": "---", "Fecha": "27\/11\/1969", "Anyo": 1969, "Rio": "GUADALEST", "Municipio": "GUADALEST", "Cuenca": "JUCAR", "Provincia": "ALICANTE", "x": 744422, "y": 4285116, "Tipos": "Abastecimiento, Riego, ---", "time": 1969 }, "geometry": { "type": "Point", "coordinates": [ -0.192166073309142, 38.680029796397733 ] } },
{ "type": "Feature", "properties": { "codpresa": 6290030, "Nombre": "GUADALHORCE", "Nombre SEP": "GUADALHORCE", "Otro nombr": "---", "Fecha": "31\/12\/1973", "Anyo": 1973, "Rio": "GUADALHORCE", "Municipio": "CAMPILLOS", "Cuenca": "CUENCA MEDITERRANEA ANDALUZA", "Provincia": "MALAGA", "x": 339635, "y": 4090040, "Tipos": "Abastecimiento, Hidroel?ctrico, Riego", "time": 1973 }, "geometry": { "type": "Point", "coordinates": [ -4.801530826294392, 36.942231885689672 ] } },
{ "type": "Feature", "properties": { "codpresa": 5230047, "Nombre": "GUADALMENA", "Nombre SEP": "GUADALMENA", "Otro nombr": "---", "Fecha": "31\/12\/1969", "Anyo": 1969, "Rio": "GUADALMENA", "Municipio": "CHICLANA DE SEGURA", "Cuenca": "GUADALQUIVIR", "Provincia": "JAEN", "x": 507600, "y": 4246350, "Tipos": "Hidroel?ctrico, Riego, Abastecimiento", "time": 1969 }, "geometry": { "type": "Point", "coordinates": [ -2.913003701760066, 38.365294064735068 ] } },
{ "type": "Feature", "properties": { "codpresa": 6290030, "Nombre": "GUADALHORCE", "Nombre SEP": "GUADALTEBA", "Otro nombr": "---", "Fecha": "31\/12\/1973", "Anyo": 1973, "Rio": "GUADALHORCE", "Municipio": "CAMPILLOS", "Cuenca": "CUENCA MEDITERRANEA ANDALUZA", "Provincia": "MALAGA", "x": 339635, "y": 4090040, "Tipos": "Abastecimiento, Hidroel?ctrico, Riego", "time": 1973 }, "geometry": { "type": "Point", "coordinates": [ -4.800899899144437, 36.945068873087934 ] } },
{ "type": "Feature", "properties": { "codpresa": 5140033, "Nombre": "GUADANU?O", "Nombre SEP": "GUADANUO", "Otro nombr": "CERRO MURIANO", "Fecha": "01\/01\/1967", "Anyo": 1967, "Rio": "GUADANU?O", "Municipio": "CORDOBA Y VILLAVICIOSA", "Cuenca": "GUADALQUIVIR", "Provincia": "CORDOBA", "x": 342050, "y": 4209965, "Tipos": "Abastecimiento, Riego, ---", "time": 1967 }, "geometry": { "type": "Point", "coordinates": [ -4.799401042143728, 38.020690274512909 ] } },
{ "type": "Feature", "properties": { "codpresa": 6110005, "Nombre": "GUADARRANQUE", "Nombre SEP": "GUADARRANQUE", "Otro nombr": "---", "Fecha": "01\/01\/1965", "Anyo": 1965, "Rio": "GUADARRANQUE", "Municipio": "LOS BARRIOS Y CASTELLAR", "Cuenca": "CUENCA MEDITERRANEA ANDALUZA", "Provincia": "CADIZ", "x": 279075, "y": 4021000, "Tipos": "Abastecimiento, Riego, Industrial", "time": 1965 }, "geometry": { "type": "Point", "coordinates": [ -5.462582245278115, 36.308061895928077 ] } },
{ "type": "Feature", "properties": { "codpresa": 3100138, "Nombre": "HELECHAL", "Nombre SEP": "HELECHAL", "Otro nombr": "---", "Fecha": "01\/01\/1965", "Anyo": 1965, "Rio": "ARROYO HELECHAL", "Municipio": "ALCANTARA", "Cuenca": "TAJO", "Provincia": "CACERES", "x": 166075, "y": 4418651, "Tipos": "Acuicultura, Riego, ---", "time": 1965 }, "geometry": { "type": "Point", "coordinates": [ -6.900752059908138, 39.850102210041328 ] } },
{ "type": "Feature", "properties": { "codpresa": 3050008, "Nombre": "HINCHONA, LA", "Nombre SEP": "HINCHONA, LA", "Otro nombr": "---", "Fecha": "01\/01\/1946", "Anyo": 1946, "Rio": "YEDRA", "Municipio": "TIEMBLO, EL", "Cuenca": "TAJO", "Provincia": "AVILA", "x": 372108, "y": 4471728, "Tipos": "Riego, ---, ---", "time": 1946 }, "geometry": { "type": "Point", "coordinates": [ -4.508831766221838, 40.382678871336999 ] } },
{ "type": "Feature", "properties": { "codpresa": 5110015, "Nombre": "HURONES, LOS", "Nombre SEP": "HURONES, LOS", "Otro nombr": "---", "Fecha": "01\/01\/1964", "Anyo": 1964, "Rio": "MAJACEITE", "Municipio": "ALGAR", "Cuenca": "GUADALETE Y BARBATE", "Provincia": "CADIZ", "x": 271131, "y": 4060369, "Tipos": "Abastecimiento, Hidroel?ctrico, Riego", "time": 1964 }, "geometry": { "type": "Point", "coordinates": [ -5.561793185401353, 36.661651452526876 ] } },
{ "type": "Feature", "properties": { "codpresa": 8030028, "Nombre": "ISBERT", "Nombre SEP": "ISBERT", "Otro nombr": "---", "Fecha": "01\/01\/1945", "Anyo": 1945, "Rio": "GIRONA", "Municipio": "ORBA", "Cuenca": "JUCAR", "Provincia": "ALICANTE", "x": 751659, "y": 4297224, "Tipos": "Riego, ---, ---", "time": 1945 }, "geometry": { "type": "Point", "coordinates": [ -0.10263108021709, 38.787864046694146 ] } },
{ "type": "Feature", "properties": { "codpresa": 5140028, "Nombre": "IZNAJAR", "Nombre SEP": "IZNAJAR", "Otro nombr": "---", "Fecha": "01\/01\/1969", "Anyo": 1969, "Rio": "GENIL", "Municipio": "RUTE, CUEVAS SAN MARCOS", "Cuenca": "GUADALQUIVIR", "Provincia": "CORDOBA", "x": 377250, "y": 4126550, "Tipos": "Abastecimiento, Hidroel?ctrico, Riego", "time": 1969 }, "geometry": { "type": "Point", "coordinates": [ -4.384595419518428, 37.277450507675191 ] } },
{ "type": "Feature", "properties": { "codpresa": 3100102, "Nombre": "JARILLA, LA (TAJO)", "Nombre SEP": "JARILLA, LA (TAJO)", "Otro nombr": "---", "Fecha": "01\/01\/1964", "Anyo": 1964, "Rio": "CAVERA", "Municipio": "JARILLA", "Cuenca": "TAJO", "Provincia": "CACERES", "x": 242520, "y": 4451720, "Tipos": "Riego, ---, ---", "time": 1964 }, "geometry": { "type": "Point", "coordinates": [ -6.024538833190966, 40.174375288241109 ] } },
{ "type": "Feature", "properties": { "codpresa": 5140001, "Nombre": "MALPASILLO JAUJA (AZUD)", "Nombre SEP": "JAUJA", "Otro nombr": "MALPASILLO JAUJA", "Fecha": "31\/12\/1951", "Anyo": 1951, "Rio": "GENIL", "Municipio": "LUCENA", "Cuenca": "GUADALQUIVIR", "Provincia": "CORDOBA", "x": 352650, "y": 4129600, "Tipos": "Hidroel?ctrico, Riego, Abastecimiento", "time": 1951 }, "geometry": { "type": "Point", "coordinates": [ -4.662585496524082, 37.301361445385517 ] } },
{ "type": "Feature", "properties": { "codpresa": 2240007, "Nombre": "JUAN BENET (PORMA)", "Nombre SEP": "JUAN BENET (PORMA)", "Otro nombr": "---", "Fecha": "30\/04\/1968", "Anyo": 1968, "Rio": "PORMA", "Municipio": "BO?AR", "Cuenca": "DUERO", "Provincia": "LEON", "x": 313090, "y": 4755710, "Tipos": "Abastecimiento, Hidroel?ctrico, Riego", "time": 1968 }, "geometry": { "type": "Point", "coordinates": [ -5.292865126288026, 42.929271817078423 ] } },
{ "type": "Feature", "properties": { "codpresa": 2400015, "Nombre": "LINARES DEL ARROYO", "Nombre SEP": "LINARES DEL ARROYO", "Otro nombr": "---", "Fecha": "30\/04\/1953", "Anyo": 1953, "Rio": "RIAZA", "Municipio": "MADERUELO", "Cuenca": "DUERO", "Provincia": "SEGOVIA", "x": 453728, "y": 4597664, "Tipos": "Hidroel?ctrico, Riego, ---", "time": 1953 }, "geometry": { "type": "Point", "coordinates": [ -3.554651761363497, 41.529285716247792 ] } },
{ "type": "Feature", "properties": { "codpresa": 8460013, "Nombre": "LORIGUILLA", "Nombre SEP": "LORIGUILLA", "Otro nombr": "---", "Fecha": "01\/01\/1965", "Anyo": 1965, "Rio": "TURIA", "Municipio": "LORIGUILLA Y CHULILLA", "Cuenca": "JUCAR", "Provincia": "VALENCIA", "x": 679189, "y": 4392798, "Tipos": "Regulaci?n, Riego, Hidroel?ctrico", "time": 1965 }, "geometry": { "type": "Point", "coordinates": [ -0.913545143704678, 39.665598816768487 ] } },
{ "type": "Feature", "properties": { "codpresa": 9260022, "Nombre": "MANSILLA", "Nombre SEP": "MANSILLA", "Otro nombr": "---", "Fecha": "31\/12\/1960", "Anyo": 1960, "Rio": "NAJERILLA", "Municipio": "MANSILLA DE LA SIERRA, VILLAVELAYO", "Cuenca": "EBRO", "Provincia": "LOGRO?O", "x": 507343, "y": 4667566, "Tipos": "Abastecimiento, Hidroel?ctrico, Riego", "time": 1960 }, "geometry": { "type": "Point", "coordinates": [ -2.911865795489491, 42.157818546354328 ] } },
{ "type": "Feature", "properties": { "codpresa": 5230044, "Nombre": "MARMOLEJO (AZUD)", "Nombre SEP": "MARMOLEJO", "Otro nombr": "---", "Fecha": "31\/12\/1962", "Anyo": 1962, "Rio": "GUADALQUIVIR", "Municipio": "MARMOLEJO", "Cuenca": "GUADALQUIVIR", "Provincia": "JAEN", "x": 396000, "y": 4213200, "Tipos": "Hidroel?ctrico, Riego, ---", "time": 1962 }, "geometry": { "type": "Point", "coordinates": [ -4.18614607146159, 38.058303611664883 ] } },
{ "type": "Feature", "properties": { "codpresa": 9220054, "Nombre": "MEDIANO", "Nombre SEP": "MEDIANO", "Otro nombr": "---", "Fecha": "31\/12\/1959", "Anyo": 1959, "Rio": "CINCA", "Municipio": "FUEVA, LA", "Cuenca": "EBRO", "Provincia": "HUESCA", "x": 765112, "y": 4689838, "Tipos": "Hidroel?ctrico, Riego, ---", "time": 1959 }, "geometry": { "type": "Point", "coordinates": [ 0.209614773336133, 42.312782244260198 ] } },
{ "type": "Feature", "properties": { "codpresa": 9500030, "Nombre": "MEQUINENZA", "Nombre SEP": "MEQUINENZA", "Otro nombr": "---", "Fecha": "31\/12\/1964", "Anyo": 1964, "Rio": "EBRO", "Municipio": "MEQUINENZA", "Cuenca": "EBRO", "Provincia": "ZARAGOZA", "x": 774241, "y": 4584997, "Tipos": "Hidroel?ctrico, Riego, ---", "time": 1964 }, "geometry": { "type": "Point", "coordinates": [ 0.27233271846834, 41.369107259881595 ] } },
{ "type": "Feature", "properties": { "codpresa": 5230023, "Nombre": "MOLINO DE GUADALEN (CONTRAEMBALSE)", "Nombre SEP": "MOLINO DE GUADALEN", "Otro nombr": "SALTO DEL MOLINO", "Fecha": "31\/12\/1962", "Anyo": 1962, "Rio": "GUADALEN", "Municipio": "VILCHES", "Cuenca": "GUADALQUIVIR", "Provincia": "JAEN", "x": 457163, "y": 4222764, "Tipos": "Abastecimiento, Hidroel?ctrico, Riego", "time": 1962 }, "geometry": { "type": "Point", "coordinates": [ -3.491528391718664, 38.148473161448059 ] } },
{ "type": "Feature", "properties": { "codpresa": 6110011, "Nombre": "MONTE DE LA TORRE (DD-1)", "Nombre SEP": "MONTE DE LA TORRE (DD-1)", "Otro nombr": "DEPOSITO DD-1", "Fecha": "31\/12\/1972", "Anyo": 1972, "Rio": "PRIOR", "Municipio": "BARRIOS, LOS", "Cuenca": "CUENCA MEDITERRANEA ANDALUZA", "Provincia": "CADIZ", "x": 275972, "y": 4004387, "Tipos": "Regulaci?n, Riego, ---", "time": 1972 }, "geometry": { "type": "Point", "coordinates": [ -5.492384390098595, 36.155895997598833 ] } },
{ "type": "Feature", "properties": { "codpresa": 4060102, "Nombre": "MONTIJO (AZUD)", "Nombre SEP": "MONTIJO", "Otro nombr": "---", "Fecha": "31\/12\/1954", "Anyo": 1954, "Rio": "GUADIANA", "Municipio": "MERIDA", "Cuenca": "GUADIANA", "Provincia": "BADAJOZ", "x": 202510, "y": 4314117, "Tipos": "Abastecimiento, Riego, ---", "time": 1954 }, "geometry": { "type": "Point", "coordinates": [ -6.427664088852721, 38.924344373951847 ] } },
{ "type": "Feature", "properties": { "codpresa": 4060074, "Nombre": "MOSQUIL, EL", "Nombre SEP": "MOSQUIL, EL", "Otro nombr": "---", "Fecha": "01\/01\/1971", "Anyo": 1971, "Rio": "LABRADOS", "Municipio": "USAGRE", "Cuenca": "GUADIANA", "Provincia": "BADAJOZ", "x": 228717, "y": 4255260, "Tipos": "Riego, ---, ---", "time": 1971 }, "geometry": { "type": "Point", "coordinates": [ -6.102143428079711, 38.404229071161829 ] } },
{ "type": "Feature", "properties": { "codpresa": 3280058, "Nombre": "NAVALAGAMELLA", "Nombre SEP": "NAVALAGAMELLA", "Otro nombr": "---", "Fecha": "31\/12\/1972", "Anyo": 1972, "Rio": "CURA", "Municipio": "NAVALAGAMELLA", "Cuenca": "TAJO", "Provincia": "MADRID", "x": 405106, "y": 4472030, "Tipos": "Riego, ---, ---", "time": 1972 }, "geometry": { "type": "Point", "coordinates": [ -4.118128243440852, 40.393469077714649 ] } },
{ "type": "Feature", "properties": { "codpresa": 9500043, "Nombre": "NI?O JESUS", "Nombre SEP": "NIO JESUS", "Otro nombr": "ANI?ON", "Fecha": "09\/05\/1955", "Anyo": 1955, "Rio": "ARROYO DEL FRESNO O JESUS", "Municipio": "ANI?ON", "Cuenca": "EBRO", "Provincia": "ZARAGOZA", "x": 608478, "y": 4595385, "Tipos": "Riego, ---, ---", "time": 1955 }, "geometry": { "type": "Point", "coordinates": [ -1.700241582292244, 41.502750525376456 ] } },
{ "type": "Feature", "properties": { "codpresa": 9250050, "Nombre": "OLIANA", "Nombre SEP": "OLIANA", "Otro nombr": "---", "Fecha": "31\/12\/1959", "Anyo": 1959, "Rio": "SEGRE", "Municipio": "OLIANA Y PERAMOLA", "Cuenca": "EBRO", "Provincia": "LLEIDA", "x": 855649, "y": 4669176, "Tipos": "Abastecimiento, Hidroel?ctrico, Riego", "time": 1959 }, "geometry": { "type": "Point", "coordinates": [ 1.294121856767445, 42.09323595831043 ] } },
{ "type": "Feature", "properties": { "codpresa": 8120003, "Nombre": "ONDA", "Nombre SEP": "ONDA", "Otro nombr": "BENITANDUS", "Fecha": "01\/01\/1954", "Anyo": 1954, "Rio": "SECO \/ VEO", "Municipio": "ALCUDIA DE VEO", "Cuenca": "JUCAR", "Provincia": "CASTELLON", "x": 728310, "y": 4424455, "Tipos": "Riego, ---, ---", "time": 1954 }, "geometry": { "type": "Point", "coordinates": [ -0.332381988138957, 39.935506992024152 ] } },
{ "type": "Feature", "properties": { "codpresa": 4060095, "Nombre": "ORELLANA", "Nombre SEP": "ORELLANA", "Otro nombr": "---", "Fecha": "01\/01\/1963", "Anyo": 1963, "Rio": "GUADIANA", "Municipio": "ORELLANA LA VIEJA, CAMPANARIO", "Cuenca": "GUADIANA", "Provincia": "BADAJOZ", "x": 280423, "y": 4318386, "Tipos": "Abastecimiento, Hidroel?ctrico, Riego", "time": 1963 }, "geometry": { "type": "Point", "coordinates": [ -5.535132886954286, 38.986952323172254 ] } },
{ "type": "Feature", "properties": { "codpresa": 3190028, "Nombre": "PALMACES", "Nombre SEP": "PALMACES", "Otro nombr": "---", "Fecha": "01\/01\/1954", "Anyo": 1954, "Rio": "CA?AMARES", "Municipio": "PALMACES DE JADRAQUE", "Cuenca": "TAJO", "Provincia": "GUADALAJARA", "x": 505170, "y": 4544655, "Tipos": "Riego, ---, ---", "time": 1954 }, "geometry": { "type": "Point", "coordinates": [ -2.938477271645835, 41.053113370518076 ] } },
{ "type": "Feature", "properties": { "codpresa": 10170013, "Nombre": "PASTERAL I (AZUD)", "Nombre SEP": "PASTERAL, EL", "Otro nombr": "---", "Fecha": "01\/01\/1962", "Anyo": 1962, "Rio": "TER", "Municipio": "OSOR", "Cuenca": "CUENCAS INTERNAS DE CATALU?A", "Provincia": "GERONA", "x": 965397, "y": 4663877, "Tipos": "Abastecimiento, Hidroel?ctrico, Riego", "time": 1962 }, "geometry": { "type": "Point", "coordinates": [ 2.611741540127118, 41.986908522905971 ] } },
{ "type": "Feature", "properties": { "codpresa": 4060004, "Nombre": "PASTIZALES, LOS", "Nombre SEP": "PASTIZALES, LOS", "Otro nombr": "---", "Fecha": "31\/12\/1964", "Anyo": 1964, "Rio": "VALDELARQUILLO (VALDESEQUILLOS)", "Municipio": "HELECHOSA DE LOS MONTES", "Cuenca": "GUADIANA", "Provincia": "BADAJOZ", "x": 352216, "y": 4363403, "Tipos": "Abastecimiento, Riego, ---", "time": 1964 }, "geometry": { "type": "Point", "coordinates": [ -4.716514246194416, 39.407486921477805 ] } },
{ "type": "Feature", "properties": { "codpresa": 5230018, "Nombre": "PEDRO MARIN", "Nombre SEP": "PEDRO MARIN", "Otro nombr": "---", "Fecha": "31\/12\/1954", "Anyo": 1954, "Rio": "GUADALQUIVIR", "Municipio": "JODAR", "Cuenca": "GUADALQUIVIR", "Provincia": "JAEN", "x": 463739, "y": 4196379, "Tipos": "Hidroel?ctrico, Riego, Industrial", "time": 1954 }, "geometry": { "type": "Point", "coordinates": [ -3.41239455913779, 37.908748708069062 ] } },
{ "type": "Feature", "properties": { "codpresa": 4130018, "Nombre": "PE?ARROYA", "Nombre SEP": "PEARROYA", "Otro nombr": "---", "Fecha": "01\/01\/1959", "Anyo": 1959, "Rio": "GUADIANA", "Municipio": "ARGAMASILLA DE ALBA", "Cuenca": "GUADIANA", "Provincia": "CIUDAD REAL", "x": 499519, "y": 4323754, "Tipos": "Abastecimiento, Riego, ---", "time": 1959 }, "geometry": { "type": "Point", "coordinates": [ -3.006410578817207, 39.0600734782616 ] } },
{ "type": "Feature", "properties": { "codpresa": 3280055, "Nombre": "PE?ASCALES, LOS", "Nombre SEP": "PEASCALES, LOS", "Otro nombr": "---", "Fecha": "31\/12\/1962", "Anyo": 1962, "Rio": "ARROYO TROFAS", "Municipio": "TORRELODONES", "Cuenca": "TAJO", "Provincia": "MADRID", "x": 424055, "y": 4492013, "Tipos": "Abastecimiento, Riego, ---", "time": 1962 }, "geometry": { "type": "Point", "coordinates": [ -3.899212763467394, 40.573385126433401 ] } },
{ "type": "Feature", "properties": { "codpresa": 3280063, "Nombre": "PICADAS", "Nombre SEP": "PICADAS", "Otro nombr": "---", "Fecha": "31\/12\/1952", "Anyo": 1952, "Rio": "ALBERCHE", "Municipio": "SAN MARTIN DE VALDEIGLESIAS", "Cuenca": "TAJO", "Provincia": "MADRID", "x": 393940, "y": 4465690, "Tipos": "Abastecimiento, Hidroel?ctrico, Riego", "time": 1952 }, "geometry": { "type": "Point", "coordinates": [ -4.248613957763868, 40.335017228866114 ] } },
{ "type": "Feature", "properties": { "codpresa": 4060031, "Nombre": "PIEDRA AGUDA", "Nombre SEP": "PIEDRA AGUDA", "Otro nombr": "---", "Fecha": "01\/01\/1956", "Anyo": 1956, "Rio": "OLIVENZA", "Municipio": "OLIVENZA", "Cuenca": "GUADIANA", "Provincia": "BADAJOZ", "x": 149904, "y": 4289973, "Tipos": "Abastecimiento, Riego, ---", "time": 1956 }, "geometry": { "type": "Point", "coordinates": [ -7.022127716948229, 38.686645940997359 ] } },
{ "type": "Feature", "properties": { "codpresa": 4210092, "Nombre": "PIEDRAS", "Nombre SEP": "PIEDRAS", "Otro nombr": "---", "Fecha": "31\/12\/1968", "Anyo": 1968, "Rio": "PIEDRAS", "Municipio": "CARTAYA, LEPE", "Cuenca": "TINTO, ODIEL Y PIEDRAS", "Provincia": "HUELVA", "x": 122023, "y": 4144432, "Tipos": "Abastecimiento, Riego, ---", "time": 1968 }, "geometry": { "type": "Point", "coordinates": [ -7.267780799337213, 37.369637834626118 ] } },
{ "type": "Feature", "properties": { "codpresa": 5410106, "Nombre": "PINTADO, EL", "Nombre SEP": "PINTADO, EL", "Otro nombr": "---", "Fecha": "31\/12\/1948", "Anyo": 1948, "Rio": "VIAR", "Municipio": "CAZALLA SIERRA,GUADALCANAL,REAL DE JARA,REINA FTE ARCO", "Cuenca": "GUADALQUIVIR", "Provincia": "SEVILLA", "x": 240667, "y": 4208399, "Tipos": "Hidroel?ctrico, Riego, ---", "time": 1948 }, "geometry": { "type": "Point", "coordinates": [ -5.952895519265762, 37.986200300108067 ] } },
{ "type": "Feature", "properties": { "codpresa": 5140004, "Nombre": "PUENTE NUEVO", "Nombre SEP": "PUENTE NUEVO", "Otro nombr": "---", "Fecha": "01\/01\/1972", "Anyo": 1972, "Rio": "GUADIATO", "Municipio": "VILLAVICIOSA DE CORDOBA", "Cuenca": "GUADALQUIVIR", "Provincia": "CORDOBA", "x": 331056, "y": 4217469, "Tipos": "Abastecimiento, Hidroel?ctrico, Riego", "time": 1972 }, "geometry": { "type": "Point", "coordinates": [ -4.925423118201439, 38.086333381963037 ] } },
{ "type": "Feature", "properties": { "codpresa": 8120004, "Nombre": "REGAJO, EL", "Nombre SEP": "REGAJO, EL", "Otro nombr": "---", "Fecha": "31\/10\/1959", "Anyo": 1959, "Rio": "PALANCIA", "Municipio": "JERICA", "Cuenca": "JUCAR", "Provincia": "CASTELLON", "x": 711756, "y": 4418669, "Tipos": "Riego, Regulaci?n, ---", "time": 1959 }, "geometry": { "type": "Point", "coordinates": [ -0.524371838946281, 39.890226040506406 ] } },
{ "type": "Feature", "properties": { "codpresa": 2340005, "Nombre": "REQUEJADA", "Nombre SEP": "REQUEJADA", "Otro nombr": "---", "Fecha": "01\/08\/1935", "Anyo": 1935, "Rio": "PISUERGA", "Municipio": "ARBEJAL", "Cuenca": "DUERO", "Provincia": "PALENCIA", "x": 375507, "y": 4751818, "Tipos": "Abastecimiento, Riego, Defensa frente a avenidas", "time": 1935 }, "geometry": { "type": "Point", "coordinates": [ -4.529079842156704, 42.906501474629039 ] } },
{ "type": "Feature", "properties": { "codpresa": 5140048, "Nombre": "RETORTILLO", "Nombre SEP": "RETORTILLO", "Otro nombr": "---", "Fecha": "01\/01\/1970", "Anyo": 1970, "Rio": "RETORTILLO", "Municipio": "HORNACHUELOS, PUEBLA DE INFANTES", "Cuenca": "GUADALQUIVIR", "Provincia": "CORDOBA", "x": 293165, "y": 4191105, "Tipos": "Abastecimiento, Riego, ---", "time": 1970 }, "geometry": { "type": "Point", "coordinates": [ -5.350685975142197, 37.843949105180215 ] } },
{ "type": "Feature", "properties": { "codpresa": 3280015, "Nombre": "REY, DEL", "Nombre SEP": "REY, DEL", "Otro nombr": "---", "Fecha": "31\/12\/1971", "Anyo": 1971, "Rio": "JARAMA", "Municipio": "RIVAS-VACIAMADRID", "Cuenca": "TAJO", "Provincia": "MADRID", "x": 453964, "y": 4461241, "Tipos": "Riego, ---, ---", "time": 1971 }, "geometry": { "type": "Point", "coordinates": [ -3.541697666725634, 40.30040624814928 ] } },
{ "type": "Feature", "properties": { "codpresa": 9430003, "Nombre": "RIBARROJA", "Nombre SEP": "RIBARROJA", "Otro nombr": "RIBA ROJA", "Fecha": "31\/12\/1969", "Anyo": 1969, "Rio": "EBRO", "Municipio": "RIBA-ROJA D??EBRE", "Cuenca": "EBRO", "Provincia": "TARRAGONA", "x": 788146, "y": 4571794, "Tipos": "Abastecimiento, Hidroel?ctrico, Riego", "time": 1969 }, "geometry": { "type": "Point", "coordinates": [ 0.432402255743064, 41.244260457974114 ] } },
{ "type": "Feature", "properties": { "codpresa": 1270013, "Nombre": "RIBASALTAS (AZUD)", "Nombre SEP": "RIBASALTAS (AZUD)", "Otro nombr": "---", "Fecha": "31\/12\/1969", "Anyo": 1969, "Rio": "CABE", "Municipio": "MONFORTE DE LEMOS", "Cuenca": "MI?O-SIL", "Provincia": "LUGO", "x": 132034, "y": 4721564, "Tipos": "Riego, ---, ---", "time": 1969 }, "geometry": { "type": "Point", "coordinates": [ -7.482123337173747, 42.558773132887893 ] } },
{ "type": "Feature", "properties": { "codpresa": 3450011, "Nombre": "ROSARITO", "Nombre SEP": "ROSARITO", "Otro nombr": "---", "Fecha": "31\/12\/1958", "Anyo": 1958, "Rio": "TIETAR", "Municipio": "OROPESA, CANDELEDA", "Cuenca": "TAJO", "Provincia": "TOLEDO", "x": 302082, "y": 4442874, "Tipos": "Riego, Hidroel?ctrico, ---", "time": 1958 }, "geometry": { "type": "Point", "coordinates": [ -5.323316569402881, 40.109785509002386 ] } },
{ "type": "Feature", "properties": { "codpresa": 5230022, "Nombre": "RUMBLAR", "Nombre SEP": "RUMBLAR", "Otro nombr": "---", "Fecha": "31\/12\/1941", "Anyo": 1941, "Rio": "RUMBLAR", "Municipio": "BA?OS DE LA ENCINA", "Cuenca": "GUADALQUIVIR", "Provincia": "JAEN", "x": 429670, "y": 4224281, "Tipos": "Abastecimiento, Riego, ---", "time": 1941 }, "geometry": { "type": "Point", "coordinates": [ -3.805118133356511, 38.160940200795679 ] } },
{ "type": "Feature", "properties": { "codpresa": 3100074, "Nombre": "SALOR", "Nombre SEP": "SALOR", "Otro nombr": "---", "Fecha": "01\/01\/1964", "Anyo": 1964, "Rio": "SALOR", "Municipio": "CACERES", "Cuenca": "TAJO", "Provincia": "CACERES", "x": 214873, "y": 4362570, "Tipos": "Riego, ---, ---", "time": 1964 }, "geometry": { "type": "Point", "coordinates": [ -6.304252947963797, 39.363823279289257 ] } },
{ "type": "Feature", "properties": { "codpresa": 2470004, "Nombre": "SAN JOSE", "Nombre SEP": "SAN JOSE", "Otro nombr": "---", "Fecha": "17\/11\/1945", "Anyo": 1945, "Rio": "DUERO", "Municipio": "CASTRONU?O", "Cuenca": "DUERO", "Provincia": "VALLADOLID", "x": 310093, "y": 4586292, "Tipos": "Hidroel?ctrico, Riego, ---", "time": 1945 }, "geometry": { "type": "Point", "coordinates": [ -5.272929021949244, 41.40334878237924 ] } },
{ "type": "Feature", "properties": { "codpresa": 3280027, "Nombre": "SAN JUAN (DIQUE DEL COLLADO)", "Nombre SEP": "SAN JUAN", "Otro nombr": "---", "Fecha": "31\/12\/1955", "Anyo": 1955, "Rio": "ALBERCHE", "Municipio": "SAN MARTIN DE VALDEIGLESIAS", "Cuenca": "TAJO", "Provincia": "MADRID", "x": 388451, "y": 4469946, "Tipos": "Abastecimiento, Hidroel?ctrico, Riego", "time": 1955 }, "geometry": { "type": "Point", "coordinates": [ -4.31396264185899, 40.372634988032473 ] } },
{ "type": "Feature", "properties": { "codpresa": 10250001, "Nombre": "SANT PONC (SAN PONS)", "Nombre SEP": "SAN PONS", "Otro nombr": "---", "Fecha": "19\/12\/1957", "Anyo": 1957, "Rio": "EL CARDENER", "Municipio": "CLARIANA DE CARDENER", "Cuenca": "CUENCAS INTERNAS DE CATALU?A", "Provincia": "LLEIDA", "x": 882025, "y": 4656011, "Tipos": "Riego, Abastecimiento, Hidroel?ctrico", "time": 1957 }, "geometry": { "type": "Point", "coordinates": [ 1.604928701928848, 41.963247965218237 ] } },
{ "type": "Feature", "properties": { "codpresa": 9220076, "Nombre": "SANTA ANA", "Nombre SEP": "SANTA ANA", "Otro nombr": "---", "Fecha": "31\/12\/1961", "Anyo": 1961, "Rio": "NOGUERA RIBAGORZANA", "Municipio": "CASTILLONROY", "Cuenca": "EBRO", "Provincia": "HUESCA", "x": 797530, "y": 4643159, "Tipos": "Abastecimiento, Hidroel?ctrico, Riego", "time": 1961 }, "geometry": { "type": "Point", "coordinates": [ 0.58585068877188, 41.884376074961594 ] } },
{ "type": "Feature", "properties": { "codpresa": 2370010, "Nombre": "SANTA TERESA", "Nombre SEP": "SANTA TERESA", "Otro nombr": "---", "Fecha": "28\/02\/1961", "Anyo": 1961, "Rio": "TORMES", "Municipio": "MONTEJO DE SALVATIERRA Y PELAYOS", "Cuenca": "DUERO", "Provincia": "SALAMANCA", "x": 280203, "y": 4505246, "Tipos": "Hidroel?ctrico, Riego, Abastecimiento", "time": 1961 }, "geometry": { "type": "Point", "coordinates": [ -5.601478818221761, 40.666530208282772 ] } },
{ "type": "Feature", "properties": { "codpresa": 7300019, "Nombre": "SANTOMERA (DIQUE DEL COLLADO)", "Nombre SEP": "SANTOMERA", "Otro nombr": "---", "Fecha": "31\/12\/1965", "Anyo": 1965, "Rio": "SALADA", "Municipio": "SANTOMERA", "Cuenca": "SEGURA", "Provincia": "MURCIA", "x": 667635, "y": 4218190, "Tipos": "Defensa frente a avenidas, Riego, ---", "time": 1965 }, "geometry": { "type": "Point", "coordinates": [ -1.089223323305816, 38.094416812028811 ] } },
{ "type": "Feature", "properties": { "codpresa": 10080007, "Nombre": "SAU", "Nombre SEP": "SAU", "Otro nombr": "---", "Fecha": "31\/12\/1964", "Anyo": 1964, "Rio": "TER", "Municipio": "VILANOVA DE SAU", "Cuenca": "CUENCAS INTERNAS DE CATALU?A", "Provincia": "BARCELONA", "x": 948914, "y": 4660480, "Tipos": "Abastecimiento, Hidroel?ctrico, Riego", "time": 1964 }, "geometry": { "type": "Point", "coordinates": [ 2.412853763608266, 41.968034742145285 ] } },
{ "type": "Feature", "properties": { "codpresa": 2240018, "Nombre": "SELGA DE ORDAS", "Nombre SEP": "SELGA DE ORDAS", "Otro nombr": "---", "Fecha": "31\/12\/1961", "Anyo": 1961, "Rio": "LUNA", "Municipio": "RIOSECO DE TAPIA, STA. MARIA ORDAS", "Cuenca": "DUERO", "Provincia": "LEON", "x": 271923, "y": 4737491, "Tipos": "Abastecimiento, Hidroel?ctrico, Riego", "time": 1961 }, "geometry": { "type": "Point", "coordinates": [ -5.787157982272, 42.754623703580187 ] } },
{ "type": "Feature", "properties": { "codpresa": 8120002, "Nombre": "SICHAR", "Nombre SEP": "SICHAR", "Otro nombr": "---", "Fecha": "30\/04\/1960", "Anyo": 1960, "Rio": "MIJARES", "Municipio": "ONDA", "Cuenca": "JUCAR", "Provincia": "CASTELLON", "x": 736439, "y": 4432744, "Tipos": "Regulaci?n, Riego, ---", "time": 1960 }, "geometry": { "type": "Point", "coordinates": [ -0.229798337282889, 40.011805159211811 ] } },
{ "type": "Feature", "properties": { "codpresa": 3100056, "Nombre": "SOLANA, LA", "Nombre SEP": "SOLANA, LA", "Otro nombr": "---", "Fecha": "01\/01\/1955", "Anyo": 1955, "Rio": "ARROYO CABRIOSO", "Municipio": "HERRERA DE ALCANTARA", "Cuenca": "TAJO", "Provincia": "CACERES", "x": 121529, "y": 4390838, "Tipos": "Riego, ---, ---", "time": 1955 }, "geometry": { "type": "Point", "coordinates": [ -7.402713597322813, 39.582504882455126 ] } },
{ "type": "Feature", "properties": { "codpresa": 9220034, "Nombre": "SOTONERA, LA (DIQUE DEL COLLADO 1) (ASTON Y VACAS)", "Nombre SEP": "SOTONERA, LA (DIQUE DEL COLLADO 1)", "Otro nombr": "---", "Fecha": "01\/01\/1963", "Anyo": 1963, "Rio": "ASTON-VACAS", "Municipio": "ALCALA DE GURREA", "Cuenca": "EBRO", "Provincia": "HUESCA", "x": 692200, "y": 4664000, "Tipos": "Abastecimiento, Hidroel?ctrico, Riego", "time": 1963 }, "geometry": { "type": "Point", "coordinates": [ -0.675494101176755, 42.104556770731016 ] } },
{ "type": "Feature", "properties": { "codpresa": 10170012, "Nombre": "SUSQUEDA", "Nombre SEP": "SUSQUEDA", "Otro nombr": "---", "Fecha": "01\/01\/1967", "Anyo": 1967, "Rio": "TER", "Municipio": "OSOR", "Cuenca": "CUENCAS INTERNAS DE CATALU?A", "Provincia": "GERONA", "x": 958440, "y": 4663004, "Tipos": "Abastecimiento, Hidroel?ctrico, Riego", "time": 1967 }, "geometry": { "type": "Point", "coordinates": [ 2.525629754723707, 41.978174543669596 ] } },
{ "type": "Feature", "properties": { "codpresa": 9500034, "Nombre": "TORCAS, LAS", "Nombre SEP": "TORCAS, LAS", "Otro nombr": "---", "Fecha": "31\/12\/1946", "Anyo": 1946, "Rio": "HUERVA", "Municipio": "TOSOS", "Cuenca": "EBRO", "Provincia": "ZARAGOZA", "x": 660235, "y": 4573209, "Tipos": "Abastecimiento, Riego, ---", "time": 1946 }, "geometry": { "type": "Point", "coordinates": [ -1.086248185678983, 41.294432150333634 ] } },
{ "type": "Feature", "properties": { "codpresa": 5410139, "Nombre": "TORRE DEL AGUILA", "Nombre SEP": "TORRE DEL AGUILA", "Otro nombr": "---", "Fecha": "31\/12\/1947", "Anyo": 1947, "Rio": "SALADO DE MORON", "Municipio": "UTRERA", "Cuenca": "GUADALQUIVIR", "Provincia": "SEVILLA", "x": 254750, "y": 4103343, "Tipos": "Riego, ---, ---", "time": 1947 }, "geometry": { "type": "Point", "coordinates": [ -5.75796704655238, 37.042299853535575 ] } },
{ "type": "Feature", "properties": { "codpresa": 2400007, "Nombre": "TORRELARA", "Nombre SEP": "TORRELARA", "Otro nombr": "---", "Fecha": "31\/12\/1971", "Anyo": 1971, "Rio": "MAGDALENA", "Municipio": "MU?OPEDRO", "Cuenca": "DUERO", "Provincia": "SEGOVIA", "x": 371042, "y": 4526981, "Tipos": "Riego, ---, ---", "time": 1971 }, "geometry": { "type": "Point", "coordinates": [ -4.525464948925385, 40.881645701856648 ] } },
{ "type": "Feature", "properties": { "codpresa": 3100128, "Nombre": "TOZO", "Nombre SEP": "TOZO", "Otro nombr": "---", "Fecha": "01\/01\/1962", "Anyo": 1962, "Rio": "TOZO", "Municipio": "TORRECILLAS DE LA TIESA", "Cuenca": "TAJO", "Provincia": "CACERES", "x": 258781, "y": 4384708, "Tipos": "Riego, ---, ---", "time": 1962 }, "geometry": { "type": "Point", "coordinates": [ -5.808491538821287, 39.578167482738969 ] } },
{ "type": "Feature", "properties": { "codpresa": 5230005, "Nombre": "TRANCO DE BEAS", "Nombre SEP": "TRANCO DE BEAS", "Otro nombr": "---", "Fecha": "31\/12\/1944", "Anyo": 1944, "Rio": "GUADALQUIVIR", "Municipio": "VILLANUEVA DEL ARZOBISPO", "Cuenca": "GUADALQUIVIR", "Provincia": "JAEN", "x": 518004, "y": 4225445, "Tipos": "Hidroel?ctrico, Riego, ---", "time": 1944 }, "geometry": { "type": "Point", "coordinates": [ -2.796085163534599, 38.172961013561668 ] } },
{ "type": "Feature", "properties": { "codpresa": 9500008, "Nombre": "TRANQUERA, LA", "Nombre SEP": "TRANQUERA, LA", "Otro nombr": "---", "Fecha": "31\/12\/1959", "Anyo": 1959, "Rio": "PIEDRA", "Municipio": "CARENAS", "Cuenca": "EBRO", "Provincia": "ZARAGOZA", "x": 600522, "y": 4568949, "Tipos": "Abastecimiento, Riego, ---", "time": 1959 }, "geometry": { "type": "Point", "coordinates": [ -1.799933359379148, 41.26571491471411 ] } },
{ "type": "Feature", "properties": { "codpresa": 8120011, "Nombre": "ULLDECONA", "Nombre SEP": "ULLDECONA", "Otro nombr": "---", "Fecha": "01\/01\/1967", "Anyo": 1967, "Rio": "CENIA", "Municipio": "PUEBLA DE BENIFASAR, LA", "Cuenca": "JUCAR", "Provincia": "CASTELLON", "x": 773861, "y": 4507456, "Tipos": "Riego, Abastecimiento, ---", "time": 1967 }, "geometry": { "type": "Point", "coordinates": [ 0.233696820899937, 40.671205055706174 ] } },
{ "type": "Feature", "properties": { "codpresa": 9010013, "Nombre": "ULLIVARRI (ULLIBARRI GAMBOA)", "Nombre SEP": "ULLIVARRI", "Otro nombr": "---", "Fecha": "31\/12\/1956", "Anyo": 1956, "Rio": "ZADORRA", "Municipio": "ARRAZUA-UBARRUNDIA", "Cuenca": "EBRO", "Provincia": "ALAVA", "x": 531411, "y": 4753261, "Tipos": "Abastecimiento, Hidroel?ctrico, Riego", "time": 1956 }, "geometry": { "type": "Point", "coordinates": [ -2.616684562982715, 42.929748081557243 ] } },
{ "type": "Feature", "properties": { "codpresa": 9220071, "Nombre": "VADIELLO", "Nombre SEP": "VADIELLO", "Otro nombr": "---", "Fecha": "31\/12\/1971", "Anyo": 1971, "Rio": "GUATIZALEMA", "Municipio": "LOPORZANO", "Cuenca": "EBRO", "Provincia": "HUESCA", "x": 724600, "y": 4680350, "Tipos": "Abastecimiento, Riego, ---", "time": 1971 }, "geometry": { "type": "Point", "coordinates": [ -0.278274787832226, 42.241455552833116 ] } },
{ "type": "Feature", "properties": { "codpresa": 8440008, "Nombre": "VALBONA", "Nombre SEP": "VALBONA", "Otro nombr": "---", "Fecha": "23\/04\/1959", "Anyo": 1959, "Rio": "RAMBLA DE FUENTE DE MORA", "Municipio": "VALBONA", "Cuenca": "JUCAR", "Provincia": "TERUEL", "x": 685729, "y": 4458355, "Tipos": "Riego, Regulaci?n, ---", "time": 1959 }, "geometry": { "type": "Point", "coordinates": [ -0.816101272504915, 40.255060895440586 ] } },
{ "type": "Feature", "properties": { "codpresa": 3450003, "Nombre": "VALDECABRAS (ARROYO)", "Nombre SEP": "VALDECABRAS (ARROYO)", "Otro nombr": "---", "Fecha": "31\/12\/1965", "Anyo": 1965, "Rio": "VALDECABRAS", "Municipio": "ORGAZ", "Cuenca": "TAJO", "Provincia": "TOLEDO", "x": 420490, "y": 4393145, "Tipos": "Riego, ---, ---", "time": 1965 }, "geometry": { "type": "Point", "coordinates": [ -3.926788415967018, 39.679815178644702 ] } },
{ "type": "Feature", "properties": { "codpresa": 3100007, "Nombre": "VALDECA?AS", "Nombre SEP": "VALDECAAS", "Otro nombr": "---", "Fecha": "01\/01\/1964", "Anyo": 1964, "Rio": "TAJO", "Municipio": "BELVIS DE MONROY Y VALDECA?AS DE TAJO", "Cuenca": "TAJO", "Provincia": "CACERES", "x": 276345, "y": 4406515, "Tipos": "Hidroel?ctrico, Riego, ---", "time": 1964 }, "geometry": { "type": "Point", "coordinates": [ -5.611519355880159, 39.778058114257554 ] } },
{ "type": "Feature", "properties": { "codpresa": 3100021, "Nombre": "VALDEOBISPO", "Nombre SEP": "VALDEOBISPO", "Otro nombr": "---", "Fecha": "01\/01\/1965", "Anyo": 1965, "Rio": "ALAGON", "Municipio": "VALDEOBISPO, MONTEHERMOSO", "Cuenca": "TAJO", "Provincia": "CACERES", "x": 222665, "y": 4444086, "Tipos": "Hidroel?ctrico, Riego, ---", "time": 1965 }, "geometry": { "type": "Point", "coordinates": [ -6.250475465037487, 40.099972080187513 ] } },
{ "type": "Feature", "properties": { "codpresa": 2240032, "Nombre": "VALDESPINA", "Nombre SEP": "VALDESPINA", "Otro nombr": "EMBALSE DE BARRIO", "Fecha": "01\/01\/1940", "Anyo": 1940, "Rio": "ARROYO VALDESPINA", "Municipio": "SANTA COLOMBA DE CURUE?O", "Cuenca": "DUERO", "Provincia": "LEON", "x": 302950, "y": 4731030, "Tipos": "Riego, ---, ---", "time": 1940 }, "geometry": { "type": "Point", "coordinates": [ -5.406065313775238, 42.706499916903788 ] } },
{ "type": "Feature", "properties": { "codpresa": 4060067, "Nombre": "VALUENGO", "Nombre SEP": "VALUENGO", "Otro nombr": "---", "Fecha": "01\/01\/1959", "Anyo": 1959, "Rio": "ARDILA", "Municipio": "JEREZ DE LOS CABALLEROS", "Cuenca": "GUADIANA", "Provincia": "BADAJOZ", "x": 178405, "y": 4245838, "Tipos": "Hidroel?ctrico, Riego, ---", "time": 1959 }, "geometry": { "type": "Point", "coordinates": [ -6.675893208552442, 38.302112885507341 ] } },
{ "type": "Feature", "properties": { "codpresa": 2400023, "Nombre": "VENCIAS, LAS", "Nombre SEP": "VENCIAS, LAS", "Otro nombr": "---", "Fecha": "31\/12\/1962", "Anyo": 1962, "Rio": "DURAT??N", "Municipio": "FUENTIDUE?A", "Cuenca": "DUERO", "Provincia": "SEGOVIA", "x": 419459, "y": 4586898, "Tipos": "Hidroel?ctrico, Regulaci?n, Riego", "time": 1962 }, "geometry": { "type": "Point", "coordinates": [ -3.963944331589039, 41.429610334951988 ] } },
{ "type": "Feature", "properties": { "codpresa": 4130068, "Nombre": "VICARIO, EL", "Nombre SEP": "VICARIO, EL", "Otro nombr": "---", "Fecha": "31\/12\/1973", "Anyo": 1973, "Rio": "GUADIANA", "Municipio": "CIUDAD REAL", "Cuenca": "GUADIANA", "Provincia": "CIUDAD REAL", "x": 413850, "y": 4324000, "Tipos": "Riego, ---, ---", "time": 1973 }, "geometry": { "type": "Point", "coordinates": [ -3.995741332266146, 39.060841342144016 ] } },
{ "type": "Feature", "properties": { "codpresa": 3100052, "Nombre": "VID III, LA", "Nombre SEP": "VID III, LA", "Otro nombr": "---", "Fecha": "01\/01\/1959", "Anyo": 1959, "Rio": "VID", "Municipio": "TORREJON EL RUBIO", "Cuenca": "TAJO", "Provincia": "CACERES", "x": 247090, "y": 4406926, "Tipos": "Riego, ---, ---", "time": 1959 }, "geometry": { "type": "Point", "coordinates": [ -5.952086239245332, 39.775191310906806 ] } },
{ "type": "Feature", "properties": { "codpresa": 1270004, "Nombre": "VILASOUTO", "Nombre SEP": "VILASOUTO", "Otro nombr": "---", "Fecha": "31\/12\/1969", "Anyo": 1969, "Rio": "MAO", "Municipio": "INCIO, O", "Cuenca": "MI?O-SIL", "Provincia": "LUGO", "x": 137205, "y": 4732933, "Tipos": "Riego, Abastecimiento, ---", "time": 1969 }, "geometry": { "type": "Point", "coordinates": [ -7.420753964301073, 42.661742625751344 ] } },
{ "type": "Feature", "properties": { "codpresa": 5140050, "Nombre": "VILLAFRANCA", "Nombre SEP": "VILLAFRANCA", "Otro nombr": "---", "Fecha": "01\/01\/1948", "Anyo": 1948, "Rio": "GUADALQUIVIR", "Municipio": "VILLAFRANCA DE CORDOBA", "Cuenca": "GUADALQUIVIR", "Provincia": "CORDOBA", "x": 359660, "y": 4202300, "Tipos": "Hidroel?ctrico, Riego, ---", "time": 1948 }, "geometry": { "type": "Point", "coordinates": [ -4.625577330827668, 37.955913562678845 ] } },
{ "type": "Feature", "properties": { "codpresa": 2370033, "Nombre": "VILLAGONZALO (AZUD)", "Nombre SEP": "VILLAGONZALO", "Otro nombr": "---", "Fecha": "14\/02\/1960", "Anyo": 1960, "Rio": "TORMES", "Municipio": "VILLAGONZALO DE TORMES Y GARIHERNANDEZ", "Cuenca": "DUERO", "Provincia": "SALAMANCA", "x": 289812, "y": 4527892, "Tipos": "Riego, Hidroel?ctrico, Riego", "time": 1960 }, "geometry": { "type": "Point", "coordinates": [ -5.495897349387188, 40.872840331559352 ] } },
{ "type": "Feature", "properties": { "codpresa": 2240006, "Nombre": "VILLAMECA", "Nombre SEP": "VILLAMECA", "Otro nombr": "---", "Fecha": "31\/12\/1947", "Anyo": 1947, "Rio": "TUERTO-VALLE (TUERTO)", "Municipio": "QUINTANA DEL CASTILLO", "Cuenca": "DUERO", "Provincia": "LEON", "x": 247863, "y": 4726637, "Tipos": "Hidroel?ctrico, Riego, Abastecimiento", "time": 1947 }, "geometry": { "type": "Point", "coordinates": [ -6.067988700890806, 42.647765039059038 ] } },
{ "type": "Feature", "properties": { "codpresa": 9310007, "Nombre": "YESA", "Nombre SEP": "YESA", "Otro nombr": "---", "Fecha": "31\/12\/1959", "Anyo": 1959, "Rio": "ARAGON", "Municipio": "YESA", "Cuenca": "EBRO", "Provincia": "NAVARRA", "x": 648990, "y": 4719190, "Tipos": "Abastecimiento, Riego, ---", "time": 1959 }, "geometry": { "type": "Point", "coordinates": [ -1.182469870060244, 42.615042848597611 ] } },
{ "type": "Feature", "properties": { "codpresa": 5230007, "Nombre": "ZOCUECA (AZUD)", "Nombre SEP": "ZOCUECA", "Otro nombr": "---", "Fecha": "31\/12\/1940", "Anyo": 1940, "Rio": "RUMBLAR", "Municipio": "GUARROM?N", "Cuenca": "GUADALQUIVIR", "Provincia": "JAEN", "x": 427175, "y": 4217080, "Tipos": "Riego, Abastecimiento, ---", "time": 1940 }, "geometry": { "type": "Point", "coordinates": [ -3.830909374939176, 38.095783508789729 ] } },
{ "type": "Feature", "properties": { "codpresa": 4060070, "Nombre": "ZUJAR (DIQUE DEL COLLADO)", "Nombre SEP": "ZUJAR", "Otro nombr": "---", "Fecha": "01\/01\/1964", "Anyo": 1964, "Rio": "ZUJAR", "Municipio": "CASTUERA, ESPARRAGOSA DE LARES", "Cuenca": "GUADIANA", "Provincia": "BADAJOZ", "x": 285155, "y": 4310665, "Tipos": "Abastecimiento, Hidroel?ctrico, Riego", "time": 1964 }, "geometry": { "type": "Point", "coordinates": [ -5.478124289639173, 38.918614267614409 ] } }
]
}
